{
  "meta": {
    "family_name": "Kardashian–Jenner Family (Sample)",
    "note": "Sample dataset for exploring the app UI. Structured like gupta.json (spouse + parent/child relationships, top-level events). Includes core Kardashian + Jenner branches with select spouses/partners and children for richer Tree/Timeline/Map demos."
  },
  "people": [
    {
      "id": "kris",
      "name": "Kris Jenner",
      "born": "1955-11-05",
      "died": "",
      "photo": "/static/uploads/kardashian/kris.png",
      "location": { "city": "Calabasas", "region": "CA", "country": "USA", "lat": 34.1367, "lng": -118.6615 }
    },
    {
      "id": "robert_sr",
      "name": "Robert Kardashian Sr.",
      "born": "1944-02-22",
      "died": "2003-09-30",
      "photo": "/static/uploads/kardashian/robert_sr.png",
      "location": { "city": "Los Angeles", "region": "CA", "country": "USA", "lat": 34.0522, "lng": -118.2437 }
    },
    {
      "id": "bruce",
      "name": "Bruce Jenner",
      "born": "1949-10-28",
      "died": "",
      "photo": "/static/uploads/kardashian/bruce.png",
      "location": { "city": "Malibu", "region": "CA", "country": "USA", "lat": 34.0259, "lng": -118.7798 }
    },

    {
      "id": "kourtney",
      "name": "Kourtney Kardashian",
      "born": "1979-04-18",
      "died": "",
      "photo": "/static/uploads/kardashian/kourtney.png",
      "location": { "city": "Calabasas", "region": "CA", "country": "USA", "lat": 34.1367, "lng": -118.6615 }
    },
    {
      "id": "kim",
      "name": "Kim Kardashian",
      "born": "1980-10-21",
      "died": "",
      "photo": "/static/uploads/kardashian/kim.png",
      "location": { "city": "Los Angeles", "region": "CA", "country": "USA", "lat": 34.0522, "lng": -118.2437 }
    },
    {
      "id": "khloe",
      "name": "Khloé Kardashian",
      "born": "1984-06-27",
      "died": "",
      "photo": "/static/uploads/kardashian/khloe.png",
      "location": { "city": "Los Angeles", "region": "CA", "country": "USA", "lat": 34.0522, "lng": -118.2437 }
    },
    {
      "id": "robert_jr",
      "name": "Robert Kardashian Jr.",
      "born": "1987-03-17",
      "died": "",
      "photo": "/static/uploads/kardashian/robert_jr.png",
      "location": { "city": "Los Angeles", "region": "CA", "country": "USA", "lat": 34.0522, "lng": -118.2437 }
    },

    {
      "id": "kendall",
      "name": "Kendall Jenner",
      "born": "1995-11-03",
      "died": "",
      "photo": "/static/uploads/kardashian/kendall.png",
      "location": { "city": "Los Angeles", "region": "CA", "country": "USA", "lat": 34.0522, "lng": -118.2437 }
    },
    {
      "id": "kylie",
      "name": "Kylie Jenner",
      "born": "1997-08-10",
      "died": "",
      "photo": "/static/uploads/kardashian/kylie.png",
      "location": { "city": "Hidden Hills", "region": "CA", "country": "USA", "lat": 34.1683, "lng": -118.6576 }
    },

    {
      "id": "travis_b",
      "name": "Travis Barker",
      "born": "1975",
      "died": "",
      "photo": "/static/uploads/kardashian/travis_b.png",
      "location": { "city": "Los Angeles", "region": "CA", "country": "USA", "lat": 34.0522, "lng": -118.2437 }
    },
    {
      "id": "scott",
      "name": "Scott Disick",
      "born": "1983-05-26",
      "died": "",
      "photo": "/static/uploads/kardashian/scott.png",
      "location": { "city": "Los Angeles", "region": "CA", "country": "USA", "lat": 34.0522, "lng": -118.2437 }
    },
    {
      "id": "kanye",
      "name": "Kanye West",
      "born": "1977",
      "died": "",
      "photo": "/static/uploads/kardashian/kanye.png",
      "location": { "city": "Los Angeles", "region": "CA", "country": "USA", "lat": 34.0522, "lng": -118.2437 }
    },
    {
      "id": "tristan",
      "name": "Tristan Thompson",
      "born": "1991",
      "died": "",
      "photo": "/static/uploads/kardashian/tristan.png",
      "location": { "city": "Los Angeles", "region": "CA", "country": "USA", "lat": 34.0522, "lng": -118.2437 }
    },
    {
      "id": "travis_s",
      "name": "Travis Scott",
      "born": "1991",
      "died": "",
      "photo": "/static/uploads/kardashian/travis_s.png",
      "location": { "city": "Los Angeles", "region": "CA", "country": "USA", "lat": 34.0522, "lng": -118.2437 }
    },

    {
      "id": "blac_chyna",
      "name": "Blac Chyna",
      "born": "1988-05-11",
      "died": "",
      "photo": "/static/uploads/kardashian/blac_chyna.png",
      "location": { "city": "Los Angeles", "region": "CA", "country": "USA", "lat": 34.0522, "lng": -118.2437 }
    },

    {
      "id": "mason",
      "name": "Mason Disick",
      "born": "2009-12-14",
      "died": "",
      "photo": "/static/uploads/kardashian/mason.png",
      "location": { "city": "Los Angeles", "region": "CA", "country": "USA", "lat": 34.0522, "lng": -118.2437 }
    },
    {
      "id": "penelope",
      "name": "Penelope Disick",
      "born": "2012-07-08",
      "died": "",
      "photo": "/static/uploads/kardashian/penelope.png",
      "location": { "city": "Los Angeles", "region": "CA", "country": "USA", "lat": 34.0522, "lng": -118.2437 }
    },
    {
      "id": "reign",
      "name": "Reign Disick",
      "born": "2014-12-14",
      "died": "",
      "photo": "/static/uploads/kardashian/reign.png",
      "location": { "city": "Los Angeles", "region": "CA", "country": "USA", "lat": 34.0522, "lng": -118.2437 }
    },
    {
      "id": "rocky",
      "name": "Rocky Thirteen Barker",
      "born": "2023-11-01",
      "died": "",
      "photo": "/static/uploads/kardashian/rocky.png",
      "location": { "city": "Los Angeles", "region": "CA", "country": "USA", "lat": 34.0522, "lng": -118.2437 }
    },

    {
      "id": "north",
      "name": "North West",
      "born": "2013",
      "died": "",
      "photo": "/static/uploads/kardashian/north.png",
      "location": { "city": "Los Angeles", "region": "CA", "country": "USA", "lat": 34.0522, "lng": -118.2437 }
    },
    {
      "id": "saint",
      "name": "Saint West",
      "born": "2015",
      "died": "",
      "photo": "/static/uploads/kardashian/saint.png",
      "location": { "city": "Los Angeles", "region": "CA", "country": "USA", "lat": 34.0522, "lng": -118.2437 }
    },
    {
      "id": "chicago",
      "name": "Chicago West",
      "born": "2018",
      "died": "",
      "photo": "/static/uploads/kardashian/chicago.png",
      "location": { "city": "Los Angeles", "region": "CA", "country": "USA", "lat": 34.0522, "lng": -118.2437 }
    },
    {
      "id": "psalm",
      "name": "Psalm West",
      "born": "2019",
      "died": "",
      "photo": "/static/uploads/kardashian/psalm.png",
      "location": { "city": "Los Angeles", "region": "CA", "country": "USA", "lat": 34.0522, "lng": -118.2437 }
    },

    {
      "id": "true",
      "name": "True Thompson",
      "born": "2018",
      "died": "",
      "photo": "/static/uploads/kardashian/true.png",
      "location": { "city": "Los Angeles", "region": "CA", "country": "USA", "lat": 34.0522, "lng": -118.2437 }
    },
    {
      "id": "tatum",
      "name": "Tatum Thompson",
      "born": "2022",
      "died": "",
      "photo": "/static/uploads/kardashian/tatum.png",
      "location": { "city": "Los Angeles", "region": "CA", "country": "USA", "lat": 34.0522, "lng": -118.2437 }
    },

    {
      "id": "stormi",
      "name": "Stormi Webster",
      "born": "2018",
      "died": "",
      "photo": "/static/uploads/kardashian/stormi.png",
      "location": { "city": "Hidden Hills", "region": "CA", "country": "USA", "lat": 34.1683, "lng": -118.6576 }
    },
    {
      "id": "aire",
      "name": "Aire Webster",
      "born": "2022",
      "died": "",
      "photo": "/static/uploads/kardashian/aire.png",
      "location": { "city": "Hidden Hills", "region": "CA", "country": "USA", "lat": 34.1683, "lng": -118.6576 }
    },

    {
      "id": "dream",
      "name": "Dream Kardashian",
      "born": "2016-11-10",
      "died": "",
      "photo": "/static/uploads/kardashian/dream.png",
      "location": { "city": "Los Angeles", "region": "CA", "country": "USA", "lat": 34.0522, "lng": -118.2437 }
    }
  ],
  "relationships": [
    { "type": "spouse", "a": "kris", "b": "robert_sr" },
    { "type": "spouse", "a": "kris", "b": "bruce" },

    { "type": "spouse", "a": "kourtney", "b": "scott" },
    { "type": "spouse", "a": "kourtney", "b": "travis_b" },
    { "type": "spouse", "a": "kim", "b": "kanye" },
    { "type": "spouse", "a": "khloe", "b": "lamar" },
    { "type": "spouse", "a": "robert_jr", "b": "blac_chyna" },

    { "child": "kourtney", "parent": "kris" },
    { "child": "kourtney", "parent": "robert_sr" },

    { "child": "kim", "parent": "kris" },
    { "child": "kim", "parent": "robert_sr" },

    { "child": "khloe", "parent": "kris" },
    { "child": "khloe", "parent": "robert_sr" },

    { "child": "robert_jr", "parent": "kris" },
    { "child": "robert_jr", "parent": "robert_sr" },

    { "child": "kendall", "parent": "kris" },
    { "child": "kendall", "parent": "bruce" },

    { "child": "kylie", "parent": "kris" },
    { "child": "kylie", "parent": "bruce" },

    { "child": "mason", "parent": "kourtney" },
    { "child": "mason", "parent": "scott" },

    { "child": "penelope", "parent": "kourtney" },
    { "child": "penelope", "parent": "scott" },

    { "child": "reign", "parent": "kourtney" },
    { "child": "reign", "parent": "scott" },

    { "child": "rocky", "parent": "kourtney" },
    { "child": "rocky", "parent": "travis_b" },

    { "child": "north", "parent": "kim" },
    { "child": "north", "parent": "kanye" },

    { "child": "saint", "parent": "kim" },
    { "child": "saint", "parent": "kanye" },

    { "child": "chicago", "parent": "kim" },
    { "child": "chicago", "parent": "kanye" },

    { "child": "psalm", "parent": "kim" },
    { "child": "psalm", "parent": "kanye" },

    { "child": "true", "parent": "khloe" },
    { "child": "true", "parent": "tristan" },

    { "child": "tatum", "parent": "khloe" },
    { "child": "tatum", "parent": "tristan" },

    { "child": "stormi", "parent": "kylie" },
    { "child": "stormi", "parent": "travis_s" },

    { "child": "aire", "parent": "kylie" },
    { "child": "aire", "parent": "travis_s" },

    { "child": "dream", "parent": "robert_jr" },
    { "child": "dream", "parent": "blac_chyna" }
  ],
  "events": [
    {
      "id": "evt_1978_kris_robert_marriage",
      "type": "marriage",
      "date": "1978-07-08",
      "people": ["kris", "robert_sr"],
      "location": { "city": "Los Angeles", "region": "CA", "country": "USA", "lat": 34.0522, "lng": -118.2437 },
      "description": "Kris Jenner married Robert Kardashian Sr."
    },
    {
      "id": "evt_1991_kris_robert_divorce",
      "type": "other",
      "date": "1991-03-01",
      "people": ["kris", "robert_sr"],
      "location": { "city": "Los Angeles", "region": "CA", "country": "USA", "lat": 34.0522, "lng": -118.2437 },
      "description": "Divorce finalized (month-level date used for timeline)."
    },
    {
      "id": "evt_1991_kris_caitlyn_marriage",
      "type": "marriage",
      "date": "1991-04-01",
      "people": ["kris", "caitlyn"],
      "location": { "city": "Los Angeles", "region": "CA", "country": "USA", "lat": 34.0522, "lng": -118.2437 },
      "description": "Kris married Caitlyn Jenner (month-level date used for timeline)."
    },
    {
      "id": "evt_2015_kris_caitlyn_divorce",
      "type": "other",
      "date": "2015-03-23",
      "people": ["kris", "caitlyn"],
      "location": { "city": "Los Angeles", "region": "CA", "country": "USA", "lat": 34.0522, "lng": -118.2437 },
      "description": "Divorce became official."
    },

    {
      "id": "evt_2009_mason_birth",
      "type": "birth",
      "date": "2009-12-14",
      "people": ["mason", "kourtney", "scott"],
      "location": { "city": "Los Angeles", "region": "CA", "country": "USA", "lat": 34.0522, "lng": -118.2437 },
      "description": "Mason Disick was born."
    },
    {
      "id": "evt_2012_penelope_birth",
      "type": "birth",
      "date": "2012-07-08",
      "people": ["penelope", "kourtney", "scott"],
      "location": { "city": "Los Angeles", "region": "CA", "country": "USA", "lat": 34.0522, "lng": -118.2437 },
      "description": "Penelope Disick was born."
    },
    {
      "id": "evt_2014_reign_birth",
      "type": "birth",
      "date": "2014-12-14",
      "people": ["reign", "kourtney", "scott"],
      "location": { "city": "Los Angeles", "region": "CA", "country": "USA", "lat": 34.0522, "lng": -118.2437 },
      "description": "Reign Disick was born."
    },

    {
      "id": "evt_2014_kim_kanye_marriage",
      "type": "marriage",
      "date": "2014-05-24",
      "people": ["kim", "kanye"],
      "location": { "city": "Florence", "region": "Tuscany", "country": "Italy", "lat": 43.7696, "lng": 11.2558 },
      "description": "Married in Florence, Italy."
    },
    {
      "id": "evt_2022_kourtney_travis_marriage",
      "type": "marriage",
      "date": "2022-05-15",
      "people": ["kourtney", "travis_b"],
      "location": { "city": "Santa Barbara", "region": "CA", "country": "USA", "lat": 34.4208, "lng": -119.6982 },
      "description": "Courthouse wedding in Santa Barbara."
    },
    {
      "id": "evt_2023_rocky_birth",
      "type": "birth",
      "date": "2023-11-01",
      "people": ["rocky", "kourtney", "travis_b"],
      "location": { "city": "Los Angeles", "region": "CA", "country": "USA", "lat": 34.0522, "lng": -118.2437 },
      "description": "Rocky Thirteen Barker was born."
    },

    {
      "id": "evt_2009_khloe_lamar_marriage",
      "type": "marriage",
      "date": "2009-09-27",
      "people": ["khloe", "lamar"],
      "location": { "city": "Beverly Hills", "region": "CA", "country": "USA", "lat": 34.0736, "lng": -118.4004 },
      "description": "Married in Beverly Hills."
    },

    {
      "id": "evt_2016_rob_chyna_engagement",
      "type": "other",
      "date": "2016-04-05",
      "people": ["robert_jr", "blac_chyna"],
      "location": { "city": "Los Angeles", "region": "CA", "country": "USA", "lat": 34.0522, "lng": -118.2437 },
      "description": "Rob Kardashian and Blac Chyna announced their engagement."
    },
    {
      "id": "evt_2016_dream_birth",
      "type": "birth",
      "date": "2016-11-10",
      "people": ["dream", "rob", "blac_chyna"],
      "location": { "city": "Los Angeles", "region": "CA", "country": "USA", "lat": 34.0522, "lng": -118.2437 },
      "description": "Dream Kardashian was born."
    },

    {
      "id": "evt_2003_robert_sr_death",
      "type": "death",
      "date": "2003-09-30",
      "people": ["robert_sr"],
      "location": { "city": "Los Angeles", "region": "CA", "country": "USA", "lat": 34.0522, "lng": -118.2437 },
      "description": "Died in Los Angeles."
    }
  ]
}